[{"entityId":"01065e4e-1b5d-4333-871f-f434b5eabc9a","address":"Place Simiot","name":"Urinoir Simiot","topology":"Urinoir","lat":"44.8229789881203","lng":"-0.577401302396619"},{"entityId":"050f067d-1970-404f-9337-5791c256306f","address":"PARC BORDELAIS","name":"TOILETTES MIXTES PMR","topology":"Sanitaire automatique","lat":"44.8518757331012","lng":"-0.600384785507879"},{"entityId":"0855a0de-c264-498f-a32b-60e04fa9b4fb","address":"6 rue Lateulade","name":"Urinoir Lateulade","topology":"Urinoir","lat":"44.8391837160707","lng":"-0.586105120495989"},{"entityId":"08af76f8-ef71-46b6-a7e6-d16d71910e0d","address":"Boulevard Albert 1er","name":"Urinoir Boulevard Albert 1er","topology":"Urinoir","lat":"44.8133783910564","lng":"-0.563501719887714"},{"entityId":"0b157c4a-e3be-4f4c-92b3-269d0554322b","address":"Rue Edouard Laroque","name":"Urinoir Edouard Laroque","topology":"Urinoir","lat":"44.8315457925211","lng":"-0.601465902773003"},{"entityId":"1138a767-b4dc-47ff-b6de-3e4f5bd68ef2","address":"PLACE DU CARDINAL DONNET ","name":"TOILETTES MIXTES PMR","topology":"Sanitaire automatique","lat":"44.8223627770735","lng":"-0.56317776864567"},{"entityId":"12db20b2-acc7-4f5c-a739-4632b082a9d0","address":"QUAI DESCHAMPS","name":"TOILETTES MIXTES PMR","topology":"Sanitaire automatique","lat":"44.8357121865269","lng":"-0.553819543734433"},{"entityId":"14388900-fc74-49f0-9799-d9e8254013ce","address":"PLACE CHARLES GRUET","name":"TOILETTES MIXTES PMR","topology":"Sanitaire automatique","lat":"44.8466357102486","lng":"-0.580894225221999"},{"entityId":"15a29c64-1495-42bd-bb06-05a68bd174a5","address":"PLACE ANDRE MEUNIER","name":"TOILETTES MIXTES PMR","topology":"Sanitaire automatique","lat":"44.8296768356338","lng":"-0.562346841011999"},{"entityId":"15c46415-5c2b-425c-a75e-3165deb49118","address":"PLACE DES MARTYRS DE LA RESISTANCE","name":"TOILETTES MIXTES PMR","topology":"Sanitaire automatique","lat":"44.8432362152831","lng":"-0.585344222200568"},{"entityId":"16996727-4d05-422f-8813-b75824747ebd","address":"COURS DU XXX JUILLET","name":"TOILETTES MIXTES PMR","topology":"Sanitaire automatique","lat":"44.8438730756022","lng":"-0.574484493019735"},{"entityId":"18c3192d-7d56-4940-8a1d-a9d32d103cb7","address":"RUE FERNAND CAZERES","name":"SANITAIRE AUTOMATIQUE","topology":"Sanitaire automatique","lat":"44.8515956648193","lng":"-0.616188412809179"},{"entityId":"1c00d79c-e7f7-48aa-b37f-41d0623ce4f2","address":"Rue de la Benauge","name":"Urinoir Benauge","topology":"Urinoir","lat":"44.8415842334095","lng":"-0.546787725644995"},{"entityId":"1c9788bb-40cb-4b26-b25d-650c75c29cba","address":"PARC CEREY","name":"TOILETTES MIXTES PMR","topology":"Sanitaire automatique","lat":"44.850765408364","lng":"-0.604366206069451"},{"entityId":"1f6a1c5c-fe75-4a2e-8b9d-a655731ec539","address":"COURS DE L'ARGONNE","name":"TOILETTES MIXTES PMR","topology":"Sanitaire automatique","lat":"44.8266185575674","lng":"-0.576731489285663"},{"entityId":"23b152c3-8f0a-4d0c-ad9a-6b1d60804ade","address":"PLACE FRANCIS DE PRESSENCE","name":"TOILETTES MIXTES PMR","topology":"Sanitaire automatique","lat":"44.8321722300589","lng":"-0.57538140833515"},{"entityId":"261f381d-1f49-4f72-aefa-322dae44da9e","address":"PLACE NANSOUTY","name":"TOILETTES MIXTES PMR","topology":"Sanitaire automatique","lat":"44.8202910190818","lng":"-0.572028424456086"},{"entityId":"27df28f0-8150-40d9-95c3-8f66fd0e0f68","address":"PLACE CALIXTE CAMELLE","name":"TOILETTES MIXTES PMR","topology":"Sanitaire automatique","lat":"44.8428007120278","lng":"-0.549915079880538"},{"entityId":"287378f8-f955-4c5c-981d-3b84b28393a2","address":"RUE LOUIS GENDREAU","name":"TOILETTES MIXTES PMR","topology":"Sanitaire automatique","lat":"44.860581162375","lng":"-0.582307982229384"},{"entityId":"297c7686-633e-4ec3-9eeb-9c88c964d719","address":"278 avenue Thiers","name":"Urinoir Avenue Thiers","topology":"Urinoir","lat":"44.8493355094859","lng":"-0.545764497549835"},{"entityId":"2ceb90f1-ded8-4c7b-85d0-267db0a32612","address":"PLACE GAMBETTA","name":"TOILETTES MIXTES PMR","topology":"Sanitaire automatique","lat":"44.8413992560026","lng":"-0.580500493359958"},{"entityId":"30746f98-fb34-4374-8b6b-d897e3e65ab7","address":"RUE LHERISSON","name":"TOILETTES MIXTES PMR","topology":"Sanitaire automatique","lat":"44.8244033003095","lng":"-0.578206447597773"},{"entityId":"32d1f6b6-9643-47cd-a758-0a523ce9a866","address":"QUAI DE LA GRAVE MAISON JARDINIER","name":"TOILETTES MIXTES PMR","topology":"Sanitaire automatique","lat":"44.8320159108826","lng":"-0.558550657121559"},{"entityId":"3404acc3-68dd-4a8b-ae55-70654275a6f9","address":"PARC AUX ANGELIQUES","name":"TOILETTES MIXTES PMR","topology":"Sanitaire automatique","lat":"44.850037489114","lng":"-0.561318699520833"},{"entityId":"34d61c66-7eb9-44bf-a4fa-453d47fa415e","address":"QUAI DE QUEYRIES","name":"TOILETTES MIXTES PMR","topology":"Sanitaire automatique","lat":"44.8453287693979","lng":"-0.565089980969551"},{"entityId":"3675e3a7-cb73-4b3d-97c5-4b70c3c2c01b","address":"JARDIN PUBLIC 2","name":"TOILETTES MIXTES PMR","topology":"Sanitaire automatique","lat":"44.8484987917125","lng":"-0.576423665209004"},{"entityId":"37bfb55c-9039-4845-afb8-2c0b3ec15943","address":"PLACE BIR HAKEIM","name":"TOILETTES MIXTES PMR","topology":"Sanitaire automatique","lat":"44.8365360662017","lng":"-0.565813444420164"},{"entityId":"3875ff77-9b07-4994-b2f7-f5d1595d8a0b","address":"Alfred Smith","name":"Urinoir Alfred Smith","topology":"Urinoir","lat":"44.8246182459392","lng":"-0.612898308114987"},{"entityId":"3f8d7a52-ddf0-41a7-98f9-4e9324a477a1","address":"PLACE SAINTE EULALIE","name":"TOILETTES MIXTES PMR","topology":"Sanitaire automatique","lat":"44.8332637652618","lng":"-0.577123366854941"},{"entityId":"4bcf9408-0462-4ad5-ba83-ee467ccc6e6e","address":"MAIRIE DE QUARTIER","name":"TOILETTES MIXTES PMR","topology":"Sanitaire automatique","lat":"44.8770415832956","lng":"-0.543826556879397"},{"entityId":"4d734a3d-75be-4cc4-94a3-9f2fe5c46ba4","address":"PLACE STALINGRAD 1","name":"TOILETTES MIXTES PMR","topology":"Sanitaire automatique","lat":"44.8410373864982","lng":"-0.559646510785304"},{"entityId":"4d8c2b87-945d-4864-9e83-b38f11197c55","address":"QUAI DE LA GRAVE 2","name":"TOILETTES MIXTES PMR","topology":"Sanitaire automatique","lat":"44.8336550601252","lng":"-0.561183797149825"},{"entityId":"4df4d2f8-3606-4c7a-807a-b48b65cd4248","address":"Place Dormoy","name":"TOILETTES MIXTES PMR","topology":"Sanitaire automatique","lat":"44.826702152816","lng":"-0.564338688911709"},{"entityId":"54c88162-2e5f-4eae-9751-1d65cfbf831f","address":"SALLE DES FETES","name":"TOILETTES MIXTES PMR","topology":"Sanitaire automatique","lat":"44.8563901975093","lng":"-0.579061489704142"},{"entityId":"57fa8898-5e40-453a-9635-c2e66e0f8b84","address":"PARC FLORAL","name":"TOILETTES MIXTES PMR","topology":"Sanitaire automatique","lat":"44.9048936557054","lng":"-0.565964582860944"},{"entityId":"653a390a-9656-4595-beb7-f0497cf892b8","address":"PLACE DES CAPUCINS","name":"TOILETTES MIXTES","topology":"Sanitaire automatique","lat":"44.8303582263382","lng":"-0.568139368943024"},{"entityId":"6821f0a9-3805-4b92-8f83-7f0981dd24cb","address":"POLE D'ECHANGE DES QUINCONCES","name":"TOILETTES MIXTES PMR","topology":"Sanitaire automatique","lat":"44.8446356759873","lng":"-0.573331958509923"},{"entityId":"68233d2c-48d4-485e-b5ab-6ac490f9d4fc","address":"PLACE STALINGRAD 2","name":"TOILETTES MIXTES PMR","topology":"Sanitaire automatique","lat":"44.8398150858205","lng":"-0.560018170645716"},{"entityId":"68b71c7b-acff-438d-a0a6-630ccfc42b45","address":"ANGLE CANTENAC ET FLORNOY","name":"TOILETTES MIXTES PMR","topology":"Sanitaire automatique","lat":"44.8331302155055","lng":"-0.610968982269826"},{"entityId":"710dac77-8a57-45f9-a792-bb94de1e9beb","address":"Rue Ferdinand Palau","name":"Urinoir Ferdinand Palau","topology":"Urinoir","lat":"44.8429112389689","lng":"-0.545207732057116"},{"entityId":"718b13be-f2e0-4826-97cf-48abbb150c10","address":"PLACE PAUL DOUMER","name":"TOILETTES MIXTES PMR","topology":"Sanitaire automatique","lat":"44.8519636831117","lng":"-0.574062386736374"},{"entityId":"7420408f-1b52-45eb-9faa-e1784b0237bd","address":"QUAI LOUIS XVIII","name":"TOILETTES MIXTES PMR","topology":"Sanitaire automatique","lat":"44.8468355162235","lng":"-0.570350026323772"},{"entityId":"774afda6-1e8e-4866-bb57-058a19dc3dca","address":"QUAI DES CHARTRONS JEUX D'ENFANTS","name":"TOILETTES MIXTES PMR","topology":"Sanitaire automatique","lat":"44.8526511883209","lng":"-0.567034486475458"},{"entityId":"7a0d80db-ccb6-4ed5-ad09-52d300bb73c2","address":"PLACE SAINT MARTIAL","name":"TOILETTES MIXTES PMR","topology":"Sanitaire automatique","lat":"44.8585676524296","lng":"-0.564302298803582"},{"entityId":"7d62cc07-a142-48f3-9d57-2963b2572ecc","address":"Place Calixte Camelle","name":"Urinoir Calixte Camelle","topology":"Urinoir","lat":"44.8430459616536","lng":"-0.550276995051103"},{"entityId":"83316691-ae22-454e-9ae0-2da54210fc9c","address":"Place Adolphe Buscaillet","name":"Urinoir Buscaillet","topology":"Urinoir","lat":"44.8705870807628","lng":"-0.549685687212364"},{"entityId":"83e15e40-d2ab-4a94-a9db-2704c9f7a2b9","address":"Rue Pierre Trébod","name":"Urinoir Pierre Trébod","topology":"Urinoir","lat":"44.8611569179781","lng":"-0.584594318243944"},{"entityId":"842239c2-6f14-44e0-bab7-d88e7d8c5a26","address":"JARDIN PUBLIC 3","name":"TOILETTES MIXTES PMR","topology":"Sanitaire automatique","lat":"44.8488228593478","lng":"-0.578053123079946"},{"entityId":"882a83db-ba35-421a-8be3-adf32d48ed73","address":"QUAI DES CHARTRONS IBAIA","name":"TOILETTES MIXTES PMR","topology":"Sanitaire automatique","lat":"44.8490391334735","lng":"-0.569871065936675"},{"entityId":"88d9d967-31e8-4700-96eb-91520339fff8","address":"PLACE CASABLANCA","name":"TOILETTES MIXTES PMR","topology":"Sanitaire automatique","lat":"44.8261309834369","lng":"-0.5576776393227"},{"entityId":"89230e07-a997-4fdf-9874-82627f81c491","address":"PLACE AMELIE RABA LEON","name":"TOILETTES MIXTES PMR","topology":"Sanitaire automatique","lat":"44.8295012037086","lng":"-0.603357224245578"},{"entityId":"8c848f38-8078-4273-a5d3-76ed6cba8f47","address":"QUAI DE PALUDATE","name":"TOILETTES MIXTES PMR","topology":"Sanitaire automatique","lat":"44.8276911059445","lng":"-0.5512029757563"},{"entityId":"9193cf81-e07f-4ab1-9d68-d20f1cde808f","address":"QUAI DE LA GRAVE 1","name":"TOILETTES MIXTES PMR","topology":"Sanitaire automatique","lat":"44.8348809746268","lng":"-0.562947500651469"},{"entityId":"92d62210-2386-4649-b3cc-30d475ee9b6b","address":"PLACE DES CAPUCINS","name":"TOILETTES MIXTES PMR","topology":"Sanitaire automatique","lat":"44.8305442076186","lng":"-0.5668273987799"},{"entityId":"96e7c23c-8ac7-4d64-afc4-719aacc34097","address":"Boulevard Albert Brandenburg","name":"Urinoir Albert Brandenburg","topology":"Urinoir","lat":"44.8750589140867","lng":"-0.544397658157027"},{"entityId":"98788f9c-6182-4692-ad92-c9e021f29d94","address":"BASSINS A FLOTS","name":"TOILETTES MIXTES PMR","topology":"Sanitaire automatique","lat":"44.8674610238749","lng":"-0.562648724402819"},{"entityId":"a2a9796f-2573-4eb8-a1b6-2bece0f7b066","address":"Place André Meunier","name":"Urinoir André Meunier","topology":"Urinoir","lat":"44.8295197686845","lng":"-0.562934514433197"},{"entityId":"a31840ba-1051-407e-81c6-8d84621b8151","address":"PLACE DE LA REPUBLIQUE","name":"TOILETTES MIXTES PMR","topology":"Sanitaire automatique","lat":"44.8348098592054","lng":"-0.580155821128263"},{"entityId":"a8468899-20d1-40bd-8738-9bae3936e105","address":"PLACE PEY BERLAND","name":"TOILETTES MIXTES PMR","topology":"Sanitaire automatique","lat":"44.8376601540381","lng":"-0.576719626429686"},{"entityId":"b1e0d11a-7d58-4e5d-92f0-ae9c163bc798","address":"GINKO","name":"TOILETTES MIXTES PMR","topology":"Sanitaire automatique","lat":"44.8805424143687","lng":"-0.571061686735715"},{"entityId":"b3a7c708-b9c7-44fc-aa67-8839f2fb0da7","address":"COURS DU CHAPEAU ROUGE","name":"TOILETTES MIXTES PMR","topology":"Sanitaire automatique","lat":"44.8423610330701","lng":"-0.572155915354497"},{"entityId":"b810be99-0fe8-4c24-82d5-8132f51ff029","address":"QUAI DE PALUDATE","name":"TOILETTES MIXTES PMR","topology":"Sanitaire automatique","lat":"44.8274008589386","lng":"-0.550582690456464"},{"entityId":"b92ef577-eb6f-4197-972a-167dff668924","address":"PLACE DE LA VICTOIRE","name":"TOILETTES MIXTES PMR","topology":"Sanitaire automatique","lat":"44.8312666888538","lng":"-0.573148866859362"},{"entityId":"c19885b4-96a9-48c0-80d9-ac8536ccac7e","address":"PARC BRASCASSAT","name":"TOILETTES MIXTES PMR","topology":"Sanitaire automatique","lat":"44.8143372004609","lng":"-0.556480408277315"},{"entityId":"c3a6e05a-fe4d-429f-8da3-4a4eb4f9424a","address":"PLACE GAVINIES","name":"TOILETTES MIXTES PMR","topology":"Sanitaire automatique","lat":"44.8330024141026","lng":"-0.594345531677509"},{"entityId":"c880ee81-6dfd-4d97-8dfd-40ce0dd2495c","address":"JARDIN PUBLIC 1","name":"TOILETTES MIXTES PMR","topology":"Sanitaire automatique","lat":"44.8477738086125","lng":"-0.57827565844344"},{"entityId":"c92b6623-7271-44da-9986-45da1aa509cf","address":"Rue Paul Broca","name":"Urinoir Paul Broca","topology":"Urinoir","lat":"44.8314194068105","lng":"-0.571911810532468"},{"entityId":"cbc786f3-38ad-4749-8936-96f2f12dad5c","address":"PARC BORDELAIS","name":"TOILETTES MIXTES PMR","topology":"Sanitaire automatique","lat":"44.8535214578978","lng":"-0.599304573702467"},{"entityId":"cf43dbd1-c6df-4c65-9b68-e1e6d8c82537","address":"PAUL PAIN LEVE","name":"TOILETTES MIXTES PMR","topology":"Sanitaire automatique","lat":"44.8407727497114","lng":"-0.574926709330031"},{"entityId":"d624e6a3-0b6d-414d-ae15-0b05cc695c98","address":"PLACE JACQUES LEMOINE","name":"TOILETTES MIXTES PMR","topology":"Sanitaire automatique","lat":"44.8399515195893","lng":"-0.575043128366433"},{"entityId":"d78ef585-c52c-4b81-902c-5a049fc8da76","address":"COURS VICTOR HUGO","name":"TOILETTES MIXTES PMR","topology":"Sanitaire automatique","lat":"44.8351789164392","lng":"-0.57481472160218"},{"entityId":"dac38343-407a-468b-ac51-ac9790e90e4d","address":"QUAI RICHELIEU MAISON ECOCITOYENNE","name":"TOILETTES MIXTES PMR","topology":"Sanitaire automatique","lat":"44.8387803599183","lng":"-0.567295649872644"},{"entityId":"dbbdaae1-b7bd-45cd-bf09-3ddd8be61f36","address":"PLACE DU COLONEL RAYNAL","name":"TOILETTES MIXTES PMR","topology":"Sanitaire automatique","lat":"44.8386821941407","lng":"-0.582585503949104"},{"entityId":"dff3927c-fa8a-4356-b2dc-21d7299820b9","address":"RUE DES TERRES DE BORDES","name":"TOILETTES MIXTES PMR","topology":"Sanitaire automatique","lat":"44.8243289888982","lng":"-0.554632268544746"},{"entityId":"e0dd27a2-ae0c-49e4-9c87-68a8d12ad7fc","address":"PLACE DES PINS FRANCS","name":"Sanitaire automatique","topology":"Sanitaire automatique","lat":"44.8570766054048","lng":"-0.621477885053302"},{"entityId":"e1d2b146-6833-4644-9f16-60f5bb4527b8","address":"ALLEES DE CHARTRES","name":"TOILETTES MIXTES PMR","topology":"Sanitaire automatique","lat":"44.8468903887911","lng":"-0.574978791045948"},{"entityId":"e22bafbb-6d10-449c-bc95-aae883faff70","address":"Place d'Arlac","name":"Urinoir Arlac","topology":"Urinoir","lat":"44.8307789206283","lng":"-0.588380953484703"},{"entityId":"e64e86ef-3299-42f7-9a33-d6e6c75d468e","address":"Place de la République","name":"Urinoir République","topology":"Urinoir","lat":"44.8349248309065","lng":"-0.578596931422134"},{"entityId":"e74f5569-ef7f-4a92-a6cf-df6353796587","address":"Place Philippe Lebon","name":"Urinoir Philippe Lebon","topology":"Urinoir","lat":"44.8769804615684","lng":"-0.548228124603145"},{"entityId":"ebed7cfe-d734-4868-8ff6-8db29e61d86f","address":"PLACE DUBURG","name":"TOILETTES MIXTES PMR","topology":"Sanitaire automatique","lat":"44.8343888659824","lng":"-0.565027063305381"},{"entityId":"eff00eff-daf4-464f-b707-974371c643cf","address":"Frantz Schrader","name":"Urinoir Frantz Schrader","topology":"Urinoir","lat":"44.8351750342679","lng":"-0.607823787054809"},{"entityId":"f3d2ccac-2563-4da1-89cf-9fe460c6158e","address":"PLACE FERDINAND BUISSON","name":"TOILETTES MIXTES PMR","topology":"Sanitaire automatique","lat":"44.8241539555576","lng":"-0.551332449828981"},{"entityId":"f65f6729-8a35-4f68-bebe-de0a589aa823","address":"RUE DE LA BECHADE","name":"TOILETTES MIXTES PMR","topology":"Sanitaire automatique","lat":"44.8242614850598","lng":"-0.599255806925545"},{"entityId":"f95c0247-4f69-470a-b687-6dc6311bb54a","address":"Allée de Bristol","name":"CHALET DE NECESSITE AVEC DOUCHES","topology":"Chalet de nécessité","lat":"44.8471255231749","lng":"-0.57245896949849"},{"entityId":"fb4b8f71-d8b0-4ed5-8459-e2bcac32db94","address":"PARC PINCON","name":"TOILETTES MIXTES PMR","topology":"Sanitaire automatique","lat":"44.8448743520559","lng":"-0.543572382613402"}]